{
  "guide": [
    {
      "distance": 1.27,
      "country": "Taiwan",
      "state": "",
      "county": "",
      "institution_code": "1101110026",
      "latitude": 121.608779,
      "longitude": 25.075952,
      "name": "康寧醫療財團法人康寧醫院",
      "address": "臺北市內湖區成功路五段420巷26號",
      "phone": "02-26343500"
    },
    {
      "distance": 1.27,
      "country": "Taiwan",
      "state": "",
      "county": "",
      "institution_code": "1101110026",
      "latitude": 121.608779,
      "longitude": 25.075952,
      "name": "康寧醫療財團法人康寧醫院",
      "address": "臺北市內湖區成功路五段420巷26號",
      "phone": "02-26343500"
    },
    {
      "distance": 1.27,
      "country": "Taiwan",
      "state": "",
      "county": "",
      "institution_code": "1101110026",
      "latitude": 121.608779,
      "longitude": 25.075952,
      "name": "康寧醫療財團法人康寧醫院",
      "address": "臺北市內湖區成功路五段420巷26號",
      "phone": "02-26343500"
    },
    {
      "distance": 1.27,
      "country": "Taiwan",
      "state": "",
      "county": "",
      "institution_code": "1101110026",
      "latitude": 121.608779,
      "longitude": 25.075952,
      "name": "康寧醫療財團法人康寧醫院",
      "address": "臺北市內湖區成功路五段420巷26號",
      "phone": "02-26343500"
    },
    {
      "distance": 1.27,
      "country": "Taiwan",
      "state": "",
      "county": "",
      "institution_code": "1101110026",
      "latitude": 121.608779,
      "longitude": 25.075952,
      "name": "康寧醫療財團法人康寧醫院",
      "address": "臺北市內湖區成功路五段420巷26號",
      "phone": "02-26343500"
    },
    {
      "distance": 1.27,
      "country": "Taiwan",
      "state": "",
      "county": "",
      "institution_code": "1101110026",
      "latitude": 121.608779,
      "longitude": 25.075952,
      "name": "康寧醫療財團法人康寧醫院",
      "address": "臺北市內湖區成功路五段420巷26號",
      "phone": "02-26343500"
    }
  ],
  "official": 1,
  "result": "OK"
}
